$GPGGA,230831.00,3731.5040203,N,12221.1902733,W,1,00,0.0,169.66,M,-32.57,M,,*5C
$GPRMC,230831.00,A,3731.504,N,12221.190,W,0.0,138.9,170720,,,A*69
$GPGGA,230831.10,3731.5040220,N,12221.1902794,W,1,00,0.0,169.67,M,-32.57,M,,*50
$GPRMC,230831.10,A,3731.504,N,12221.190,W,0.0,138.9,170720,,,A*17
$GPGGA,230831.20,3731.5040220,N,12221.1902793,W,1,00,0.0,169.67,M,-32.57,M,,*54
$GPRMC,230831.20,A,3731.504,N,12221.190,W,0.0,138.9,170720,,,A*14
$GPGGA,230831.30,3731.5040221,N,12221.1902791,W,1,00,0.0,169.67,M,-32.57,M,,*56
$GPRMC,230831.30,A,3731.504,N,12221.190,W,0.0,138.9,170720,,,A*15
$GPGGA,230831.40,3731.5040221,N,12221.1902789,W,1,00,0.0,169.67,M,-32.57,M,,*58
$GPRMC,230831.40,A,3731.504,N,12221.190,W,0.0,138.9,170720,,,A*12
$GPGGA,230831.50,3731.5040221,N,12221.1902786,W,1,00,0.0,169.67,M,-32.57,M,,*56
$GPRMC,230831.50,A,3731.504,N,12221.190,W,0.0,138.9,170720,,,A*13
$GPGGA,230831.60,3731.5040221,N,12221.1902783,W,1,00,0.0,169.67,M,-32.57,M,,*50
$GPRMC,230831.60,A,3731.504,N,12221.190,W,0.0,138.9,170720,,,A*10
$GPGGA,230831.70,3731.5040220,N,12221.1902780,W,1,00,0.0,169.67,M,-32.57,M,,*53
$GPRMC,230831.70,A,3731.504,N,12221.190,W,0.0,138.9,170720,,,A*11
$GPGGA,230831.80,3731.5040221,N,12221.1902777,W,1,00,0.0,169.67,M,-32.57,M,,*55
$GPRMC,230831.80,A,3731.504,N,12221.190,W,0.0,138.9,170720,,,A*1E
$GPGGA,230831.90,3731.5040221,N,12221.1902776,W,1,00,0.0,169.66,M,-32.57,M,,*54
$GPRMC,230831.90,A,3731.504,N,12221.190,W,0.0,138.9,170720,,,A*1F
$GPGGA,230832.00,3731.5040221,N,12221.1902775,W,1,00,0.0,169.66,M,-32.57,M,,*5D
$GPRMC,230832.00,A,3731.504,N,12221.190,W,0.0,138.9,170720,,,A*6C
$GPGGA,230832.10,3731.5040221,N,12221.1902773,W,1,00,0.0,169.66,M,-32.57,M,,*5A
$GPRMC,230832.10,A,3731.504,N,12221.190,W,0.0,138.9,170720,,,A*6F
$GPGGA,230832.20,3731.5040221,N,12221.1902772,W,1,00,0.0,169.66,M,-32.57,M,,*58
$GPRMC,230832.20,A,3731.504,N,12221.190,W,0.0,138.9,170720,,,A*17
$GPGGA,230832.30,3731.5040221,N,12221.1902770,W,1,00,0.0,169.66,M,-32.57,M,,*5B
$GPRMC,230832.30,A,3731.504,N,12221.190,W,0.0,138.9,170720,,,A*6F
$GPGGA,230832.40,3731.5040221,N,12221.1902769,W,1,00,0.0,169.66,M,-32.57,M,,*54
$GPRMC,230832.40,A,3731.504,N,12221.190,W,0.0,138.9,170720,,,A*11
$GPGGA,230832.50,3731.5040221,N,12221.1902768,W,1,00,0.0,169.66,M,-32.57,M,,*54
$GPRMC,230832.50,A,3731.504,N,12221.190,W,0.0,138.9,170720,,,A*10
$GPGGA,230832.60,3731.5040221,N,12221.1902767,W,1,00,0.0,169.66,M,-32.57,M,,*58
$GPRMC,230832.60,A,3731.504,N,12221.190,W,0.0,138.9,170720,,,A*13
$GPGGA,230832.70,3731.5040221,N,12221.1902766,W,1,00,0.0,169.66,M,-32.57,M,,*58
$GPRMC,230832.70,A,3731.504,N,12221.190,W,0.0,138.9,170720,,,A*12
$GPGGA,230832.80,3731.5040221,N,12221.1902765,W,1,00,0.0,169.66,M,-32.57,M,,*54
$GPRMC,230832.80,A,3731.504,N,12221.190,W,0.0,138.9,170720,,,A*1D
$GPGGA,230832.90,3731.5040221,N,12221.1902764,W,1,00,0.0,169.66,M,-32.57,M,,*54
$GPRMC,230832.90,A,3731.504,N,12221.190,W,0.0,138.9,170720,,,A*1C
$GPGGA,230833.00,3731.5040221,N,12221.1902763,W,1,00,0.0,169.66,M,-32.57,M,,*5B
$GPRMC,230833.00,A,3731.504,N,12221.190,W,0.0,138.9,170720,,,A*6D
$GPGGA,230833.10,3731.5040221,N,12221.1902762,W,1,00,0.0,169.66,M,-32.57,M,,*5B
$GPRMC,230833.10,A,3731.504,N,12221.190,W,0.0,138.9,170720,,,A*6C
$GPGGA,230833.20,3731.5040221,N,12221.1902762,W,1,00,0.0,169.66,M,-32.57,M,,*58
$GPRMC,230833.20,A,3731.504,N,12221.190,W,0.0,138.9,170720,,,A*16
$GPGGA,230833.30,3731.5040221,N,12221.1902762,W,1,00,0.0,169.66,M,-32.57,M,,*59
$GPRMC,230833.30,A,3731.504,N,12221.190,W,0.0,138.9,170720,,,A*17
$GPGGA,230833.40,3731.5040221,N,12221.1902762,W,1,00,0.0,169.66,M,-32.57,M,,*5E
$GPRMC,230833.40,A,3731.504,N,12221.190,W,0.0,138.9,170720,,,A*6B
$GPGGA,230833.50,3731.5040221,N,12221.1902761,W,1,00,0.0,169.66,M,-32.57,M,,*5C
$GPRMC,230833.50,A,3731.504,N,12221.190,W,0.0,138.9,170720,,,A*6E
$GPGGA,230833.60,3731.5040221,N,12221.1902761,W,1,00,0.0,169.66,M,-32.57,M,,*5F
$GPRMC,230833.60,A,3731.504,N,12221.190,W,0.0,138.9,170720,,,A*6B
$GPGGA,230833.70,3731.5040221,N,12221.1902762,W,1,00,0.0,169.66,M,-32.57,M,,*5D
$GPRMC,230833.70,A,3731.504,N,12221.190,W,0.0,138.9,170720,,,A*6A
$GPGGA,230833.80,3731.5040221,N,12221.1902762,W,1,00,0.0,169.66,M,-32.57,M,,*52
$GPRMC,230833.80,A,3731.504,N,12221.190,W,0.0,138.9,170720,,,A*1C
$GPGGA,230833.90,3731.5040222,N,12221.1902762,W,1,00,0.0,169.66,M,-32.57,M,,*50
$GPRMC,230833.90,A,3731.504,N,12221.190,W,0.0,138.9,170720,,,A*1D
$GPGGA,230834.00,3731.5040222,N,12221.1902762,W,1,00,0.0,169.66,M,-32.57,M,,*5E
$GPRMC,230834.00,A,3731.504,N,12221.190,W,0.0,138.9,170720,,,A*68
$GPGGA,230834.10,3731.5040210,N,12221.1902701,W,1,00,0.0,169.66,M,-32.57,M,,*5B
$GPRMC,230834.10,A,3731.504,N,12221.190,W,0.0,138.9,170720,,,A*6B
$GPGGA,230834.20,3731.5040210,N,12221.1902701,W,1,00,0.0,169.66,M,-32.57,M,,*58
$GPRMC,230834.20,A,3731.504,N,12221.190,W,0.0,138.9,170720,,,A*11
$GPGGA,230834.30,3731.5040211,N,12221.1902701,W,1,00,0.0,169.66,M,-32.57,M,,*58
$GPRMC,230834.30,A,3731.504,N,12221.190,W,0.0,138.9,170720,,,A*10
$GPGGA,230834.40,3731.5040211,N,12221.1902701,W,1,00,0.0,169.66,M,-32.57,M,,*5F
$GPRMC,230834.40,A,3731.504,N,12221.190,W,0.0,138.9,170720,,,A*6E
$GPGGA,230834.50,3731.5040211,N,12221.1902701,W,1,00,0.0,169.66,M,-32.57,M,,*5E
$GPRMC,230834.50,A,3731.504,N,12221.190,W,0.0,138.9,170720,,,A*6D
$GPGGA,230834.60,3731.5040211,N,12221.1902700,W,1,00,0.0,169.66,M,-32.57,M,,*5C
$GPRMC,230834.60,A,3731.504,N,12221.190,W,0.0,138.9,170720,,,A*6A
$GPGGA,230834.70,3731.5040211,N,12221.1902699,W,1,00,0.0,169.66,M,-32.57,M,,*5C
$GPRMC,230834.70,A,3731.504,N,12221.190,W,0.0,138.9,170720,,,A*6B
$GPGGA,230834.80,3731.5040210,N,12221.1902698,W,1,00,0.0,169.66,M,-32.57,M,,*53
$GPRMC,230834.80,A,3731.504,N,12221.190,W,0.0,138.9,170720,,,A*1B
$GPGGA,230834.90,3731.5040210,N,12221.1902699,W,1,00,0.0,169.66,M,-32.57,M,,*53
$GPRMC,230834.90,A,3731.504,N,12221.190,W,0.0,138.9,170720,,,A*1A
$GPGGA,230835.00,3731.5040210,N,12221.1902700,W,1,00,0.0,169.66,M,-32.57,M,,*5A
$GPRMC,230835.00,A,3731.504,N,12221.190,W,0.0,138.9,170720,,,A*69
$GPGGA,230835.10,3731.5040209,N,12221.1902700,W,1,16,0.1,169.66,M,-32.57,M,,*55
$GPRMC,230835.10,A,3731.504,N,12221.190,W,0.0,138.9,170720,,,A*13
$GPGGA,230835.20,3731.5040209,N,12221.1902699,W,1,16,0.2,169.66,M,-32.57,M,,*54
$GPRMC,230835.20,A,3731.504,N,12221.190,W,0.0,138.9,170720,,,A*10
$GPGGA,230835.30,3731.5040209,N,12221.1902699,W,1,16,0.3,169.66,M,-32.57,M,,*54
$GPRMC,230835.30,A,3731.504,N,12221.190,W,0.0,138.9,170720,,,A*11
$GPGGA,230835.40,3731.5040209,N,12221.1902700,W,1,16,0.3,169.66,M,-32.57,M,,*52
$GPRMC,230835.40,A,3731.504,N,12221.190,W,0.0,138.9,170720,,,A*16
$GPGGA,230835.50,3731.5040209,N,12221.1902701,W,1,16,0.4,169.66,M,-32.57,M,,*55
$GPRMC,230835.50,A,3731.504,N,12221.190,W,0.0,138.9,170720,,,A*17
$GPGGA,230835.60,3731.5040210,N,12221.1902703,W,1,16,0.5,169.66,M,-32.57,M,,*5D
$GPRMC,230835.60,A,3731.504,N,12221.190,W,0.0,138.9,170720,,,A*6D
$GPGGA,230835.70,3731.5040210,N,12221.1902706,W,1,16,0.6,169.66,M,-32.57,M,,*5A
$GPRMC,230835.70,A,3731.504,N,12221.190,W,0.0,138.9,170720,,,A*6E
$GPGGA,230835.80,3731.5040210,N,12221.1902711,W,1,16,0.7,169.66,M,-32.57,M,,*52
$GPRMC,230835.80,A,3731.504,N,12221.190,W,0.0,138.9,170720,,,A*1A
$GPGGA,230835.90,3731.5040211,N,12221.1902716,W,1,16,0.7,169.66,M,-32.57,M,,*55
$GPRMC,230835.90,A,3731.504,N,12221.190,W,0.0,138.9,170720,,,A*1B
$GPGGA,230836.00,3731.5040212,N,12221.1902722,W,1,16,0.8,169.66,M,-32.57,M,,*54
$GPRMC,230836.00,A,3731.504,N,12221.190,W,0.0,138.9,170720,,,A*11
$GPGGA,230836.10,3731.5040212,N,12221.1902729,W,1,16,0.8,169.66,M,-32.57,M,,*5E
$GPRMC,230836.10,A,3731.504,N,12221.190,W,0.0,138.9,170720,,,A*6B
$GPGGA,230836.20,3731.5040213,N,12221.1902735,W,1,16,0.8,169.66,M,-32.57,M,,*51
$GPRMC,230836.20,A,3731.504,N,12221.190,W,0.0,138.9,170720,,,A*13
$GPGGA,230836.30,3731.5040214,N,12221.1902741,W,1,16,0.8,169.66,M,-32.57,M,,*54
$GPRMC,230836.30,A,3731.504,N,12221.190,W,0.0,138.9,170720,,,A*12
$GPGGA,230836.40,3731.5040214,N,12221.1902746,W,1,16,0.8,169.66,M,-32.57,M,,*54
$GPRMC,230836.40,A,3731.504,N,12221.190,W,0.0,138.9,170720,,,A*15
$GPGGA,230836.50,3731.5040215,N,12221.1902750,W,1,16,0.8,169.66,M,-32.57,M,,*53
$GPRMC,230836.50,A,3731.504,N,12221.190,W,0.0,138.9,170720,,,A*14
$GPGGA,230836.60,3731.5040215,N,12221.1902754,W,1,16,0.8,169.66,M,-32.57,M,,*54
$GPRMC,230836.60,A,3731.504,N,12221.190,W,0.0,138.9,170720,,,A*17
$GPGGA,230836.70,3731.5040215,N,12221.1902756,W,1,16,0.8,169.67,M,-32.57,M,,*56
$GPRMC,230836.70,A,3731.504,N,12221.190,W,0.0,138.9,170720,,,A*16
$GPGGA,230836.80,3731.5040216,N,12221.1902758,W,1,16,0.8,169.67,M,-32.57,M,,*54
$GPRMC,230836.80,A,3731.504,N,12221.190,W,0.0,138.9,170720,,,A*19
$GPGGA,230836.90,3731.5040216,N,12221.1902759,W,1,16,0.8,169.67,M,-32.57,M,,*54
$GPRMC,230836.90,A,3731.504,N,12221.190,W,0.0,138.9,170720,,,A*18
$GPGGA,230837.00,3731.5040216,N,12221.1902759,W,1,16,0.8,169.67,M,-32.57,M,,*5C
$GPRMC,230837.00,A,3731.504,N,12221.190,W,0.0,138.9,170720,,,A*6F
$GPGGA,230837.10,3731.5040216,N,12221.1902759,W,1,16,0.8,169.67,M,-32.57,M,,*5D
$GPRMC,230837.10,A,3731.504,N,12221.190,W,0.0,138.9,170720,,,A*68
$GPGGA,230837.20,3731.5040216,N,12221.1902759,W,1,16,0.8,169.67,M,-32.57,M,,*5E
$GPRMC,230837.20,A,3731.504,N,12221.190,W,0.0,138.9,170720,,,A*69
$GPGGA,230837.30,3731.5040216,N,12221.1902759,W,1,16,0.8,169.67,M,-32.57,M,,*5F
$GPRMC,230837.30,A,3731.504,N,12221.190,W,0.0,138.9,170720,,,A*6A
$GPGGA,230837.40,3731.5040216,N,12221.1902759,W,1,16,0.8,169.67,M,-32.57,M,,*58
$GPRMC,230837.40,A,3731.504,N,12221.190,W,0.0,138.9,170720,,,A*14
$GPGGA,230837.50,3731.5040216,N,12221.1902760,W,1,16,0.8,169.67,M,-32.57,M,,*53
$GPRMC,230837.50,A,3731.504,N,12221.190,W,0.0,138.9,170720,,,A*15
$GPGGA,230837.60,3731.5040216,N,12221.1902759,W,1,16,0.8,169.67,M,-32.57,M,,*5A
$GPRMC,230837.60,A,3731.504,N,12221.190,W,0.0,138.9,170720,,,A*6D
$GPGGA,230837.70,3731.5040216,N,12221.1902759,W,1,16,0.8,169.67,M,-32.57,M,,*5B
$GPRMC,230837.70,A,3731.504,N,12221.190,W,0.0,138.9,170720,,,A*6E
$GPGGA,230837.80,3731.5040216,N,12221.1902759,W,1,16,0.8,169.67,M,-32.57,M,,*54
$GPRMC,230837.80,A,3731.504,N,12221.190,W,0.0,138.9,170720,,,A*18
$GPGGA,230837.90,3731.5040216,N,12221.1902759,W,1,16,0.8,169.67,M,-32.57,M,,*55
$GPRMC,230837.90,A,3731.504,N,12221.190,W,0.0,138.9,170720,,,A*19
$GPGGA,230838.00,3731.5040216,N,12221.1902759,W,1,16,0.8,169.67,M,-32.57,M,,*53
$GPRMC,230838.00,A,3731.504,N,12221.190,W,0.0,138.9,170720,,,A*1F
$GPGGA,230838.10,3731.5040216,N,12221.1902759,W,1,16,0.8,169.67,M,-32.57,M,,*52
$GPRMC,230838.10,A,3731.504,N,12221.190,W,0.0,138.9,170720,,,A*1E
$GPGGA,230838.20,3731.5040216,N,12221.1902759,W,1,16,0.8,169.67,M,-32.57,M,,*51
$GPRMC,230838.20,A,3731.504,N,12221.190,W,0.0,138.9,170720,,,A*1D
$GPGGA,230838.30,3731.5040216,N,12221.1902759,W,1,16,0.8,169.67,M,-32.57,M,,*50
$GPRMC,230838.30,A,3731.504,N,12221.190,W,0.0,138.9,170720,,,A*1C
$GPGGA,230838.40,3731.5040216,N,12221.1902760,W,1,16,0.8,169.67,M,-32.57,M,,*5D
$GPRMC,230838.40,A,3731.504,N,12221.190,W,0.0,138.9,170720,,,A*62
$GPGGA,230838.50,3731.5040216,N,12221.1902759,W,1,16,0.8,169.67,M,-32.57,M,,*56
$GPRMC,230838.50,A,3731.504,N,12221.190,W,0.0,138.9,170720,,,A*1A
$GPGGA,230838.60,3731.5040216,N,12221.1902759,W,1,16,0.8,169.67,M,-32.57,M,,*55
$GPRMC,230838.60,A,3731.504,N,12221.190,W,0.0,138.9,170720,,,A*19
$GPGGA,230838.70,3731.5040216,N,12221.1902759,W,1,16,0.8,169.67,M,-32.57,M,,*54
$GPRMC,230838.70,A,3731.504,N,12221.190,W,0.0,138.9,170720,,,A*18
$GPGGA,230838.80,3731.5040216,N,12221.1902759,W,1,16,0.8,169.67,M,-32.57,M,,*5B
$GPRMC,230838.80,A,3731.504,N,12221.190,W,0.0,138.9,170720,,,A*6E
$GPGGA,230838.90,3731.5040216,N,12221.1902759,W,1,16,0.8,169.67,M,-32.57,M,,*5A
$GPRMC,230838.90,A,3731.504,N,12221.190,W,0.0,138.9,170720,,,A*6D
$GPGGA,230839.00,3731.5040216,N,12221.1902759,W,1,16,0.8,169.67,M,-32.57,M,,*52
$GPRMC,230839.00,A,3731.504,N,12221.190,W,0.0,138.9,170720,,,A*1E
$GPGGA,230839.10,3731.5040216,N,12221.1902759,W,1,16,0.8,169.67,M,-32.57,M,,*53
$GPRMC,230839.10,A,3731.504,N,12221.190,W,0.0,138.9,170720,,,A*1F
$GPGGA,230839.20,3731.5040216,N,12221.1902759,W,1,16,0.8,169.67,M,-32.57,M,,*50
$GPRMC,230839.20,A,3731.504,N,12221.190,W,0.0,138.9,170720,,,A*1C
$GPGGA,230839.30,3731.5040216,N,12221.1902759,W,1,16,0.8,169.67,M,-32.57,M,,*51
$GPRMC,230839.30,A,3731.504,N,12221.190,W,0.0,138.9,170720,,,A*1D
$GPGGA,230839.40,3731.5040216,N,12221.1902759,W,1,16,0.8,169.67,M,-32.57,M,,*56
$GPRMC,230839.40,A,3731.504,N,12221.190,W,0.0,138.9,170720,,,A*1A
$GPGGA,230839.50,3731.5040216,N,12221.1902760,W,1,16,0.8,169.67,M,-32.57,M,,*5D
$GPRMC,230839.50,A,3731.504,N,12221.190,W,0.0,138.9,170720,,,A*62
$GPGGA,230839.60,3731.5040216,N,12221.1902759,W,1,16,0.8,169.67,M,-32.57,M,,*54
$GPRMC,230839.60,A,3731.504,N,12221.190,W,0.0,138.9,170720,,,A*18
$GPGGA,230839.70,3731.5040216,N,12221.1902759,W,1,16,0.8,169.67,M,-32.57,M,,*55
$GPRMC,230839.70,A,3731.504,N,12221.190,W,0.0,138.9,170720,,,A*19
$GPGGA,230839.80,3731.5040216,N,12221.1902759,W,1,16,0.8,169.67,M,-32.57,M,,*5A
$GPRMC,230839.80,A,3731.504,N,12221.190,W,0.0,138.9,170720,,,A*6D
$GPGGA,230839.90,3731.5040216,N,12221.1902759,W,1,16,0.8,169.67,M,-32.57,M,,*5B
$GPRMC,230839.90,A,3731.504,N,12221.190,W,0.0,138.9,170720,,,A*6E
$GPGGA,230840.00,3731.5040216,N,12221.1902759,W,1,16,0.8,169.67,M,-32.57,M,,*5C
$GPRMC,230840.00,A,3731.504,N,12221.190,W,0.0,138.9,170720,,,A*6F
$GPGGA,230840.10,3731.5040216,N,12221.1902759,W,1,16,0.8,169.67,M,-32.57,M,,*5D
$GPRMC,230840.10,A,3731.504,N,12221.190,W,0.0,138.9,170720,,,A*68
$GPGGA,230840.20,3731.5040216,N,12221.1902759,W,1,16,0.8,169.67,M,-32.57,M,,*5E
$GPRMC,230840.20,A,3731.504,N,12221.190,W,0.0,138.9,170720,,,A*69
$GPGGA,230840.30,3731.5040216,N,12221.1902759,W,1,16,0.8,169.67,M,-32.57,M,,*5F
$GPRMC,230840.30,A,3731.504,N,12221.190,W,0.0,138.9,170720,,,A*6A
$GPGGA,230840.40,3731.5040216,N,12221.1902759,W,1,16,0.8,169.67,M,-32.57,M,,*58
$GPRMC,230840.40,A,3731.504,N,12221.190,W,0.0,138.9,170720,,,A*14
$GPGGA,230840.50,3731.5040216,N,12221.1902759,W,1,16,0.8,169.67,M,-32.57,M,,*59
$GPRMC,230840.50,A,3731.504,N,12221.190,W,0.0,138.9,170720,,,A*15
$GPGGA,230840.60,3731.5040216,N,12221.1902759,W,1,16,0.8,169.67,M,-32.57,M,,*5A
$GPRMC,230840.60,A,3731.504,N,12221.190,W,0.0,138.9,170720,,,A*6D
$GPGGA,230840.70,3731.5040216,N,12221.1902759,W,1,16,0.8,169.67,M,-32.57,M,,*5B
$GPRMC,230840.70,A,3731.504,N,12221.190,W,0.0,138.9,170720,,,A*6E
$GPGGA,230840.80,3731.5040216,N,12221.1902759,W,1,16,0.8,169.67,M,-32.57,M,,*54
$GPRMC,230840.80,A,3731.504,N,12221.190,W,0.0,138.9,170720,,,A*18
$GPGGA,230840.90,3731.5040216,N,12221.1902759,W,1,16,0.8,169.67,M,-32.57,M,,*55
$GPRMC,230840.90,A,3731.504,N,12221.190,W,0.0,138.9,170720,,,A*19
$GPGGA,230841.00,3731.5040216,N,12221.1902759,W,1,16,0.8,169.67,M,-32.57,M,,*5D
$GPRMC,230841.00,A,3731.504,N,12221.190,W,0.0,138.9,170720,,,A*68
$GPGGA,230841.10,3731.5040216,N,12221.1902759,W,1,16,0.8,169.67,M,-32.57,M,,*5C
$GPRMC,230841.10,A,3731.504,N,12221.190,W,0.0,138.9,170720,,,A*6F
$GPGGA,230841.20,3731.5040216,N,12221.1902759,W,1,16,0.8,169.67,M,-32.57,M,,*5F
$GPRMC,230841.20,A,3731.504,N,12221.190,W,0.0,138.9,170720,,,A*6A
$GPGGA,230841.30,3731.5040216,N,12221.1902759,W,1,16,0.8,169.67,M,-32.57,M,,*5E
$GPRMC,230841.30,A,3731.504,N,12221.190,W,0.0,138.9,170720,,,A*69
$GPGGA,230841.40,3731.5040215,N,12221.1902758,W,1,16,0.8,169.66,M,-32.57,M,,*5A
$GPRMC,230841.40,A,3731.504,N,12221.190,W,0.0,138.9,170720,,,A*6E
$GPGGA,230841.50,3731.5040216,N,12221.1902759,W,1,16,0.8,169.67,M,-32.57,M,,*58
$GPRMC,230841.50,A,3731.504,N,12221.190,W,0.0,138.9,170720,,,A*14
$GPGGA,230841.60,3731.5040216,N,12221.1902759,W,1,16,0.8,169.67,M,-32.57,M,,*5B
$GPRMC,230841.60,A,3731.504,N,12221.190,W,0.0,138.9,170720,,,A*6E
$GPGGA,230841.70,3731.5040216,N,12221.1902759,W,1,16,0.8,169.67,M,-32.57,M,,*5A
$GPRMC,230841.70,A,3731.504,N,12221.190,W,0.0,138.9,170720,,,A*6D
$GPGGA,230841.80,3731.5040216,N,12221.1902759,W,1,16,0.8,169.67,M,-32.57,M,,*55
$GPRMC,230841.80,A,3731.504,N,12221.190,W,0.0,138.9,170720,,,A*19
$GPGGA,230841.90,3731.5040216,N,12221.1902758,W,1,16,0.8,169.66,M,-32.57,M,,*54
$GPRMC,230841.90,A,3731.504,N,12221.190,W,0.0,138.9,170720,,,A*18
$GPGGA,230842.00,3731.5040216,N,12221.1902759,W,1,16,0.8,169.67,M,-32.57,M,,*5E
$GPRMC,230842.00,A,3731.504,N,12221.190,W,0.0,138.9,170720,,,A*69
$GPGGA,230842.10,3731.5040216,N,12221.1902759,W,1,16,0.8,169.66,M,-32.57,M,,*5E
$GPRMC,230842.10,A,3731.504,N,12221.190,W,0.0,138.9,170720,,,A*68
$GPGGA,230842.20,3731.5040216,N,12221.1902759,W,1,16,0.8,169.66,M,-32.57,M,,*5D
$GPRMC,230842.20,A,3731.504,N,12221.190,W,0.0,138.9,170720,,,A*69
$GPGGA,230842.30,3731.5040216,N,12221.1902759,W,1,16,0.8,169.67,M,-32.57,M,,*5D
$GPRMC,230842.30,A,3731.504,N,12221.190,W,0.0,138.9,170720,,,A*68
$GPGGA,230842.40,3731.5040216,N,12221.1902759,W,1,16,0.8,169.66,M,-32.57,M,,*5B
$GPRMC,230842.40,A,3731.504,N,12221.190,W,0.0,138.9,170720,,,A*6F
$GPGGA,230842.50,3731.5040216,N,12221.1902759,W,1,16,0.8,169.67,M,-32.57,M,,*5B
$GPRMC,230842.50,A,3731.504,N,12221.190,W,0.0,138.9,170720,,,A*6E
$GPGGA,230842.60,3731.5040216,N,12221.1902759,W,1,16,0.8,169.67,M,-32.57,M,,*58
$GPRMC,230842.60,A,3731.504,N,12221.190,W,0.0,138.9,170720,,,A*14
$GPGGA,230842.70,3731.5040216,N,12221.1902759,W,1,16,0.8,169.66,M,-32.57,M,,*58
$GPRMC,230842.70,A,3731.504,N,12221.190,W,0.0,138.9,170720,,,A*15
$GPGGA,230842.80,3731.5040216,N,12221.1902759,W,1,16,0.8,169.66,M,-32.57,M,,*57
$GPRMC,230842.80,A,3731.504,N,12221.190,W,0.0,138.9,170720,,,A*1A
$GPGGA,230842.90,3731.5040216,N,12221.1902759,W,1,16,0.8,169.66,M,-32.57,M,,*56
$GPRMC,230842.90,A,3731.504,N,12221.190,W,0.0,138.9,170720,,,A*1B
$GPGGA,230843.00,3731.5040216,N,12221.1902759,W,1,16,0.8,169.66,M,-32.57,M,,*5E
$GPRMC,230843.00,A,3731.504,N,12221.190,W,0.0,138.9,170720,,,A*68
$GPGGA,230843.10,3731.5040216,N,12221.1902759,W,1,16,0.8,169.66,M,-32.57,M,,*5F
$GPRMC,230843.10,A,3731.504,N,12221.190,W,0.0,138.9,170720,,,A*6B
$GPGGA,230843.20,3731.5040216,N,12221.1902759,W,1,16,0.8,169.66,M,-32.57,M,,*5C
$GPRMC,230843.20,A,3731.504,N,12221.190,W,0.0,138.9,170720,,,A*6E
$GPGGA,230843.30,3731.5040215,N,12221.1902759,W,1,16,0.8,169.66,M,-32.57,M,,*5E
$GPRMC,230843.30,A,3731.504,N,12221.190,W,0.0,138.9,170720,,,A*6B
$GPGGA,230843.40,3731.5040216,N,12221.1902759,W,1,16,0.8,169.66,M,-32.57,M,,*5A
$GPRMC,230843.40,A,3731.504,N,12221.190,W,0.0,138.9,170720,,,A*6C
$GPGGA,230843.50,3731.5040216,N,12221.1902759,W,1,16,0.8,169.66,M,-32.57,M,,*5B
$GPRMC,230843.50,A,3731.504,N,12221.190,W,0.0,138.9,170720,,,A*6F
$GPGGA,230843.60,3731.5040216,N,12221.1902759,W,1,16,0.8,169.67,M,-32.57,M,,*59
$GPRMC,230843.60,A,3731.504,N,12221.190,W,0.0,138.9,170720,,,A*15
$GPGGA,230843.70,3731.5040216,N,12221.1902759,W,1,16,0.8,169.67,M,-32.57,M,,*58
$GPRMC,230843.70,A,3731.504,N,12221.190,W,0.0,138.9,170720,,,A*14
$GPGGA,230843.80,3731.5040216,N,12221.1902759,W,1,16,0.8,169.67,M,-32.57,M,,*57
$GPRMC,230843.80,A,3731.504,N,12221.190,W,0.0,138.9,170720,,,A*1B
$GPGGA,230843.90,3731.5040216,N,12221.1902760,W,1,16,0.8,169.67,M,-32.57,M,,*5C
$GPRMC,230843.90,A,3731.504,N,12221.190,W,0.0,138.9,170720,,,A*65
$GPGGA,230844.00,3731.5040216,N,12221.1902760,W,1,16,0.8,169.67,M,-32.57,M,,*52
$GPRMC,230844.00,A,3731.504,N,12221.190,W,0.0,138.9,170720,,,A*14
$GPGGA,230844.10,3731.5040216,N,12221.1902760,W,1,16,0.8,169.67,M,-32.57,M,,*53
$GPRMC,230844.10,A,3731.504,N,12221.190,W,0.0,138.9,170720,,,A*15
$GPGGA,230844.20,3731.5040216,N,12221.1902760,W,1,16,0.8,169.67,M,-32.57,M,,*50
$GPRMC,230844.20,A,3731.504,N,12221.190,W,0.0,138.9,170720,,,A*16
$GPGGA,230844.30,3731.5040216,N,12221.1902760,W,1,16,0.8,169.67,M,-32.57,M,,*51
$GPRMC,230844.30,A,3731.504,N,12221.190,W,0.0,138.9,170720,,,A*17
$GPGGA,230844.40,3731.5040216,N,12221.1902760,W,1,16,0.8,169.67,M,-32.57,M,,*56
$GPRMC,230844.40,A,3731.504,N,12221.190,W,0.0,138.9,170720,,,A*10
$GPGGA,230844.50,3731.5040216,N,12221.1902760,W,1,16,0.8,169.67,M,-32.57,M,,*57
$GPRMC,230844.50,A,3731.504,N,12221.190,W,0.0,138.9,170720,,,A*11
$GPGGA,230844.60,3731.5040216,N,12221.1902760,W,1,16,0.8,169.67,M,-32.57,M,,*54
$GPRMC,230844.60,A,3731.504,N,12221.190,W,0.0,138.9,170720,,,A*12
$GPGGA,230844.70,3731.5040216,N,12221.1902760,W,1,16,0.8,169.67,M,-32.57,M,,*55
$GPRMC,230844.70,A,3731.504,N,12221.190,W,0.0,138.9,170720,,,A*13
$GPGGA,230844.80,3731.5040216,N,12221.1902760,W,1,16,0.8,169.67,M,-32.57,M,,*5A
$GPRMC,230844.80,A,3731.504,N,12221.190,W,0.0,138.9,170720,,,A*67
$GPGGA,230844.90,3731.5040216,N,12221.1902760,W,1,16,0.8,169.67,M,-32.57,M,,*5B
$GPRMC,230844.90,A,3731.504,N,12221.190,W,0.0,138.9,170720,,,A*64
$GPGGA,230845.00,3731.5040216,N,12221.1902760,W,1,16,0.8,169.67,M,-32.57,M,,*53
$GPRMC,230845.00,A,3731.504,N,12221.190,W,0.0,138.9,170720,,,A*15
$GPGGA,230845.10,3731.5040216,N,12221.1902760,W,1,16,0.8,169.67,M,-32.57,M,,*52
$GPRMC,230845.10,A,3731.504,N,12221.190,W,0.0,138.9,170720,,,A*14
$GPGGA,230845.20,3731.5040216,N,12221.1902759,W,1,16,0.8,169.67,M,-32.57,M,,*5B
$GPRMC,230845.20,A,3731.504,N,12221.190,W,0.0,138.9,170720,,,A*6E
$GPGGA,230845.30,3731.5040215,N,12221.1902759,W,1,16,0.8,169.67,M,-32.57,M,,*59
$GPRMC,230845.30,A,3731.504,N,12221.190,W,0.0,138.9,170720,,,A*16
$GPGGA,230845.40,3731.5040215,N,12221.1902758,W,1,16,0.8,169.67,M,-32.57,M,,*5F
$GPRMC,230845.40,A,3731.504,N,12221.190,W,0.0,138.9,170720,,,A*68
$GPGGA,230845.50,3731.5040215,N,12221.1902758,W,1,16,0.8,169.66,M,-32.57,M,,*5F
$GPRMC,230845.50,A,3731.504,N,12221.190,W,0.0,138.9,170720,,,A*69
$GPGGA,230845.60,3731.5040215,N,12221.1902758,W,1,16,0.8,169.66,M,-32.57,M,,*5C
$GPRMC,230845.60,A,3731.504,N,12221.190,W,0.0,138.9,170720,,,A*6C
$GPGGA,230845.70,3731.5040215,N,12221.1902756,W,1,16,0.8,169.66,M,-32.57,M,,*53
$GPRMC,230845.70,A,3731.504,N,12221.190,W,0.0,138.9,170720,,,A*12
$GPGGA,230845.80,3731.5040215,N,12221.1902756,W,1,16,0.8,169.66,M,-32.57,M,,*5C
$GPRMC,230845.80,A,3731.504,N,12221.190,W,0.0,138.9,170720,,,A*62
$GPGGA,230845.90,3731.5040215,N,12221.1902755,W,1,16,0.8,169.66,M,-32.57,M,,*5E
$GPRMC,230845.90,A,3731.504,N,12221.190,W,0.0,138.9,170720,,,A*67
$GPGGA,230846.00,3731.5040215,N,12221.1902757,W,1,16,0.8,169.66,M,-32.57,M,,*56
$GPRMC,230846.00,A,3731.504,N,12221.190,W,0.0,138.9,170720,,,A*16
$GPGGA,230846.10,3731.5040215,N,12221.1902756,W,1,16,0.8,169.66,M,-32.57,M,,*56
$GPRMC,230846.10,A,3731.504,N,12221.190,W,0.0,138.9,170720,,,A*17
$GPGGA,230846.20,3731.5040216,N,12221.1902754,W,1,16,0.8,169.66,M,-32.57,M,,*54
$GPRMC,230846.20,A,3731.504,N,12221.190,W,0.0,138.9,170720,,,A*14
$GPGGA,230846.30,3731.5040220,N,12221.1902748,W,1,16,0.8,169.66,M,-32.57,M,,*5D
$GPRMC,230846.30,A,3731.504,N,12221.190,W,0.0,138.9,170720,,,A*6C
$GPGGA,230846.40,3731.5040220,N,12221.1902744,W,1,16,0.8,169.66,M,-32.57,M,,*56
$GPRMC,230846.40,A,3731.504,N,12221.190,W,0.0,138.9,170720,,,A*12
$GPGGA,230846.50,3731.5040217,N,12221.1902744,W,1,16,0.8,169.66,M,-32.57,M,,*53
$GPRMC,230846.50,A,3731.504,N,12221.190,W,0.0,138.9,170720,,,A*13
$GPGGA,230846.60,3731.5040214,N,12221.1902750,W,1,16,0.8,169.66,M,-32.57,M,,*56
$GPRMC,230846.60,A,3731.504,N,12221.190,W,0.0,138.9,170720,,,A*10
$GPGGA,230846.70,3731.5040218,N,12221.1902750,W,1,16,0.8,169.66,M,-32.57,M,,*5B
$GPRMC,230846.70,A,3731.504,N,12221.190,W,0.0,138.9,170720,,,A*68
$GPGGA,230846.80,3731.5040220,N,12221.1902744,W,1,16,0.8,169.66,M,-32.57,M,,*5A
$GPRMC,230846.80,A,3731.504,N,12221.190,W,0.0,138.9,170720,,,A*65
$GPGGA,230846.90,3731.5040216,N,12221.1902747,W,1,16,0.8,169.66,M,-32.57,M,,*5D
$GPRMC,230846.90,A,3731.504,N,12221.190,W,0.0,138.9,170720,,,A*66
$GPGGA,230847.00,3731.5040214,N,12221.1902752,W,1,16,0.8,169.66,M,-32.57,M,,*53
$GPRMC,230847.00,A,3731.504,N,12221.190,W,0.0,138.9,170720,,,A*17
$GPGGA,230847.10,3731.5040217,N,12221.1902745,W,1,16,0.8,169.66,M,-32.57,M,,*57
$GPRMC,230847.10,A,3731.504,N,12221.190,W,0.0,138.9,170720,,,A*16
$GPGGA,230847.20,3731.5040219,N,12221.1902738,W,1,16,0.8,169.66,M,-32.57,M,,*50
$GPRMC,230847.20,A,3731.504,N,12221.190,W,0.0,138.9,170720,,,A*15
$GPGGA,230847.30,3731.5040214,N,12221.1902742,W,1,16,0.8,169.66,M,-32.57,M,,*51
$GPRMC,230847.30,A,3731.504,N,12221.190,W,0.0,138.9,170720,,,A*14
$GPGGA,230847.40,3731.5040205,N,12221.1902751,W,1,16,0.8,169.66,M,-32.57,M,,*54
$GPRMC,230847.40,A,3731.504,N,12221.190,W,0.0,138.9,170720,,,A*13
$GPGGA,230847.50,3731.5040202,N,12221.1902752,W,1,16,0.8,169.66,M,-32.57,M,,*51
$GPRMC,230847.50,A,3731.504,N,12221.190,W,0.0,138.9,170720,,,A*12
$GPGGA,230847.60,3731.5040207,N,12221.1902743,W,1,16,0.8,169.66,M,-32.57,M,,*57
$GPRMC,230847.60,A,3731.504,N,12221.190,W,0.0,138.9,170720,,,A*11
$GPGGA,230847.70,3731.5040210,N,12221.1902741,W,1,16,0.8,169.66,M,-32.57,M,,*52
$GPRMC,230847.70,A,3731.504,N,12221.190,W,0.0,138.9,170720,,,A*10
$GPGGA,230847.80,3731.5040209,N,12221.1902747,W,1,16,0.8,169.66,M,-32.57,M,,*53
$GPRMC,230847.80,A,3731.504,N,12221.190,W,0.0,138.9,170720,,,A*1F
$GPGGA,230847.90,3731.5040208,N,12221.1902743,W,1,16,0.8,169.66,M,-32.57,M,,*57
$GPRMC,230847.90,A,3731.504,N,12221.190,W,0.0,138.9,170720,,,A*1E
$GPGGA,230848.00,3731.5040207,N,12221.1902736,W,1,16,0.8,169.66,M,-32.57,M,,*5C
$GPRMC,230848.00,A,3731.504,N,12221.190,W,0.0,138.9,170720,,,A*67
$GPGGA,230848.10,3731.5040207,N,12221.1902736,W,1,16,0.8,169.66,M,-32.57,M,,*5D
$GPRMC,230848.10,A,3731.504,N,12221.190,W,0.0,138.9,170720,,,A*60
$GPGGA,230848.20,3731.5040208,N,12221.1902741,W,1,16,0.8,169.66,M,-32.57,M,,*51
$GPRMC,230848.20,A,3731.504,N,12221.190,W,0.0,138.9,170720,,,A*1A
$GPGGA,230848.30,3731.5040207,N,12221.1902741,W,1,16,0.8,169.66,M,-32.57,M,,*5F
$GPRMC,230848.30,A,3731.504,N,12221.190,W,0.0,138.9,170720,,,A*62
$GPGGA,230848.40,3731.5040206,N,12221.1902737,W,1,16,0.8,169.66,M,-32.57,M,,*58
$GPRMC,230848.40,A,3731.504,N,12221.190,W,0.0,138.9,170720,,,A*1C
$GPGGA,230848.50,3731.5040205,N,12221.1902736,W,1,16,0.8,169.66,M,-32.57,M,,*5B
$GPRMC,230848.50,A,3731.504,N,12221.190,W,0.0,138.9,170720,,,A*64
$GPGGA,230848.60,3731.5040205,N,12221.1902738,W,1,16,0.8,169.66,M,-32.57,M,,*56
$GPRMC,230848.60,A,3731.504,N,12221.190,W,0.0,138.9,170720,,,A*1E
$GPGGA,230848.70,3731.5040204,N,12221.1902739,W,1,16,0.8,169.66,M,-32.57,M,,*57
$GPRMC,230848.70,A,3731.504,N,12221.190,W,0.0,138.9,170720,,,A*1F
$GPGGA,230848.80,3731.5040204,N,12221.1902735,W,1,16,0.8,169.66,M,-32.57,M,,*54
$GPRMC,230848.80,A,3731.504,N,12221.190,W,0.0,138.9,170720,,,A*10
$GPGGA,230848.90,3731.5040205,N,12221.1902733,W,1,16,0.8,169.66,M,-32.57,M,,*52
$GPRMC,230848.90,A,3731.504,N,12221.190,W,0.0,138.9,170720,,,A*11
$GPGGA,230849.00,3731.5040205,N,12221.1902734,W,1,16,0.8,169.66,M,-32.57,M,,*5D
$GPRMC,230849.00,A,3731.504,N,12221.190,W,0.0,138.9,170720,,,A*60
$GPGGA,230849.10,3731.5040205,N,12221.1902735,W,1,16,0.8,169.66,M,-32.57,M,,*5D
$GPRMC,230849.10,A,3731.504,N,12221.190,W,0.0,138.9,170720,,,A*61
$GPGGA,230849.20,3731.5040204,N,12221.1902732,W,1,16,0.8,169.66,M,-32.57,M,,*58
$GPRMC,230849.20,A,3731.504,N,12221.190,W,0.0,138.9,170720,,,A*1B
$GPGGA,230849.30,3731.5040204,N,12221.1902729,W,1,16,0.8,169.66,M,-32.57,M,,*53
$GPRMC,230849.30,A,3731.504,N,12221.190,W,0.0,138.9,170720,,,A*1A
$GPGGA,230849.40,3731.5040204,N,12221.1902729,W,1,16,0.8,169.66,M,-32.57,M,,*54
$GPRMC,230849.40,A,3731.504,N,12221.190,W,0.0,138.9,170720,,,A*1D
$GPGGA,230849.50,3731.5040204,N,12221.1902731,W,1,16,0.8,169.66,M,-32.57,M,,*5C
$GPRMC,230849.50,A,3731.504,N,12221.190,W,0.0,138.9,170720,,,A*63
$GPGGA,230849.60,3731.5040204,N,12221.1902731,W,1,16,0.8,169.66,M,-32.57,M,,*5F
$GPRMC,230849.60,A,3731.504,N,12221.190,W,0.0,138.9,170720,,,A*66
$GPGGA,230849.70,3731.5040204,N,12221.1902731,W,1,16,0.8,169.66,M,-32.57,M,,*5E
$GPRMC,230849.70,A,3731.504,N,12221.190,W,0.0,138.9,170720,,,A*65
$GPGGA,230849.80,3731.5040204,N,12221.1902731,W,1,16,0.8,169.66,M,-32.57,M,,*51
$GPRMC,230849.80,A,3731.504,N,12221.190,W,0.0,138.9,170720,,,A*11
$GPGGA,230849.90,3731.5040203,N,12221.1902731,W,1,16,0.8,169.66,M,-32.57,M,,*57
$GPRMC,230849.90,A,3731.504,N,12221.190,W,0.0,138.9,170720,,,A*10
$GPGGA,230850.00,3731.5040203,N,12221.1902730,W,1,16,0.8,169.66,M,-32.57,M,,*57
$GPRMC,230850.00,A,3731.504,N,12221.190,W,0.0,138.9,170720,,,A*11
$GPGGA,230850.10,3731.5040203,N,12221.1902730,W,1,16,0.8,169.66,M,-32.57,M,,*56
$GPRMC,230850.10,A,3731.504,N,12221.190,W,0.0,138.9,170720,,,A*10
$GPGGA,230850.20,3731.5040203,N,12221.1902731,W,1,16,0.8,169.66,M,-32.57,M,,*54
$GPRMC,230850.20,A,3731.504,N,12221.190,W,0.0,138.9,170720,,,A*13
$GPGGA,230850.30,3731.5040203,N,12221.1902731,W,1,16,0.8,169.66,M,-32.57,M,,*55
$GPRMC,230850.30,A,3731.504,N,12221.190,W,0.0,138.9,170720,,,A*12
$GPGGA,230850.40,3731.5040203,N,12221.1902731,W,1,16,0.8,169.66,M,-32.57,M,,*52
$GPRMC,230850.40,A,3731.504,N,12221.190,W,0.0,138.9,170720,,,A*15
$GPGGA,230850.50,3731.5040203,N,12221.1902730,W,1,16,0.8,169.66,M,-32.57,M,,*52
$GPRMC,230850.50,A,3731.504,N,12221.190,W,0.0,138.9,170720,,,A*14
$GPGGA,230850.60,3731.5040203,N,12221.1902731,W,1,16,0.8,169.66,M,-32.57,M,,*50
$GPRMC,230850.60,A,3731.504,N,12221.190,W,0.0,138.9,170720,,,A*17
$GPGGA,230850.70,3731.5040203,N,12221.1902731,W,1,16,0.8,169.66,M,-32.57,M,,*51
$GPRMC,230850.70,A,3731.504,N,12221.190,W,0.0,138.9,170720,,,A*16
$GPGGA,230850.80,3731.5040203,N,12221.1902730,W,1,16,0.8,169.66,M,-32.57,M,,*5F
$GPRMC,230850.80,A,3731.504,N,12221.190,W,0.0,138.9,170720,,,A*60
$GPGGA,230850.90,3731.5040203,N,12221.1902730,W,1,16,0.8,169.66,M,-32.57,M,,*5E
$GPRMC,230850.90,A,3731.504,N,12221.190,W,0.0,138.9,170720,,,A*63
$GPGGA,230851.00,3731.5040203,N,12221.1902730,W,1,16,0.8,169.66,M,-32.57,M,,*56
$GPRMC,230851.00,A,3731.504,N,12221.190,W,0.0,138.9,170720,,,A*10
$GPGGA,230851.10,3731.5040203,N,12221.1902730,W,1,16,0.8,169.66,M,-32.57,M,,*57
$GPRMC,230851.10,A,3731.504,N,12221.190,W,0.0,138.9,170720,,,A*11
$GPGGA,230851.20,3731.5040203,N,12221.1902730,W,1,16,0.8,169.66,M,-32.57,M,,*54
$GPRMC,230851.20,A,3731.504,N,12221.190,W,0.0,138.9,170720,,,A*12
$GPGGA,230851.30,3731.5040203,N,12221.1902730,W,1,16,0.8,169.66,M,-32.57,M,,*55
$GPRMC,230851.30,A,3731.504,N,12221.190,W,0.0,138.9,170720,,,A*13
$GPGGA,230851.40,3731.5040203,N,12221.1902730,W,1,16,0.8,169.66,M,-32.57,M,,*52
$GPRMC,230851.40,A,3731.504,N,12221.190,W,0.0,138.9,170720,,,A*14
$GPGGA,230851.50,3731.5040203,N,12221.1902730,W,1,16,0.8,169.66,M,-32.57,M,,*53
$GPRMC,230851.50,A,3731.504,N,12221.190,W,0.0,138.9,170720,,,A*15
$GPGGA,230851.60,3731.5040203,N,12221.1902730,W,1,16,0.8,169.66,M,-32.57,M,,*50
$GPRMC,230851.60,A,3731.504,N,12221.190,W,0.0,138.9,170720,,,A*16
$GPGGA,230851.70,3731.5040203,N,12221.1902730,W,1,16,0.8,169.66,M,-32.57,M,,*51
$GPRMC,230851.70,A,3731.504,N,12221.190,W,0.0,138.9,170720,,,A*17
$GPGGA,230851.80,3731.5040203,N,12221.1902730,W,1,16,0.8,169.66,M,-32.57,M,,*5E
$GPRMC,230851.80,A,3731.504,N,12221.190,W,0.0,138.9,170720,,,A*63
$GPGGA,230851.90,3731.5040203,N,12221.1902730,W,1,16,0.8,169.66,M,-32.57,M,,*5F
$GPRMC,230851.90,A,3731.504,N,12221.190,W,0.0,138.9,170720,,,A*60
$GPGGA,230852.00,3731.5040203,N,12221.1902730,W,1,16,0.8,169.66,M,-32.57,M,,*55
$GPRMC,230852.00,A,3731.504,N,12221.190,W,0.0,138.9,170720,,,A*13
$GPGGA,230852.10,3731.5040203,N,12221.1902730,W,1,16,0.8,169.66,M,-32.57,M,,*54
$GPRMC,230852.10,A,3731.504,N,12221.190,W,0.0,138.9,170720,,,A*12
$GPGGA,230852.20,3731.5040203,N,12221.1902730,W,1,16,0.8,169.66,M,-32.57,M,,*57
$GPRMC,230852.20,A,3731.504,N,12221.190,W,0.0,138.9,170720,,,A*11
$GPGGA,230852.30,3731.5040203,N,12221.1902730,W,1,16,0.8,169.66,M,-32.57,M,,*56
$GPRMC,230852.30,A,3731.504,N,12221.190,W,0.0,138.9,170720,,,A*10
$GPGGA,230852.40,3731.5040203,N,12221.1902730,W,1,16,0.8,169.66,M,-32.57,M,,*51
$GPRMC,230852.40,A,3731.504,N,12221.190,W,0.0,138.9,170720,,,A*17
$GPGGA,230852.50,3731.5040203,N,12221.1902730,W,1,16,0.8,169.66,M,-32.57,M,,*50
$GPRMC,230852.50,A,3731.504,N,12221.190,W,0.0,138.9,170720,,,A*16
$GPGGA,230852.60,3731.5040203,N,12221.1902730,W,1,16,0.8,169.66,M,-32.57,M,,*53
$GPRMC,230852.60,A,3731.504,N,12221.190,W,0.0,138.9,170720,,,A*15
$GPGGA,230852.70,3731.5040203,N,12221.1902730,W,1,16,0.8,169.66,M,-32.57,M,,*52
$GPRMC,230852.70,A,3731.504,N,12221.190,W,0.0,138.9,170720,,,A*14
$GPGGA,230852.80,3731.5040203,N,12221.1902730,W,1,16,0.8,169.66,M,-32.57,M,,*5D
$GPRMC,230852.80,A,3731.504,N,12221.190,W,0.0,138.9,170720,,,A*62
$GPGGA,230852.90,3731.5040203,N,12221.1902730,W,1,16,0.8,169.66,M,-32.57,M,,*5C
$GPRMC,230852.90,A,3731.504,N,12221.190,W,0.0,138.9,170720,,,A*65
$GPGGA,230853.00,3731.5040203,N,12221.1902730,W,1,16,0.8,169.66,M,-32.57,M,,*54
$GPRMC,230853.00,A,3731.504,N,12221.190,W,0.0,138.9,170720,,,A*12
$GPGGA,230853.10,3731.5040203,N,12221.1902730,W,1,16,0.8,169.66,M,-32.57,M,,*55
$GPRMC,230853.10,A,3731.504,N,12221.190,W,0.0,138.9,170720,,,A*13
$GPGGA,230853.20,3731.5040203,N,12221.1902730,W,1,16,0.8,169.66,M,-32.57,M,,*56
$GPRMC,230853.20,A,3731.504,N,12221.190,W,0.0,138.9,170720,,,A*10
$GPGGA,230853.30,3731.5040203,N,12221.1902730,W,1,16,0.8,169.66,M,-32.57,M,,*57
$GPRMC,230853.30,A,3731.504,N,12221.190,W,0.0,138.9,170720,,,A*11
$GPGGA,230853.40,3731.5040203,N,12221.1902730,W,1,16,0.8,169.66,M,-32.57,M,,*50
$GPRMC,230853.40,A,3731.504,N,12221.190,W,0.0,138.9,170720,,,A*16
$GPGGA,230853.50,3731.5040203,N,12221.1902730,W,1,16,0.8,169.66,M,-32.57,M,,*51
$GPRMC,230853.50,A,3731.504,N,12221.190,W,0.0,138.9,170720,,,A*17
$GPGGA,230853.60,3731.5040203,N,12221.1902730,W,1,16,0.8,169.66,M,-32.57,M,,*52
$GPRMC,230853.60,A,3731.504,N,12221.190,W,0.0,138.9,170720,,,A*14
$GPGGA,230853.70,3731.5040203,N,12221.1902730,W,1,16,0.8,169.66,M,-32.57,M,,*53
$GPRMC,230853.70,A,3731.504,N,12221.190,W,0.0,138.9,170720,,,A*15
$GPGGA,230853.80,3731.5040203,N,12221.1902730,W,1,16,0.8,169.66,M,-32.57,M,,*5C
$GPRMC,230853.80,A,3731.504,N,12221.190,W,0.0,138.9,170720,,,A*65
$GPGGA,230853.90,3731.5040203,N,12221.1902730,W,1,16,0.8,169.66,M,-32.57,M,,*5D
$GPRMC,230853.90,A,3731.504,N,12221.190,W,0.0,138.9,170720,,,A*62
$GPGGA,230854.00,3731.5040203,N,12221.1902730,W,1,16,0.8,169.66,M,-32.57,M,,*53
$GPRMC,230854.00,A,3731.504,N,12221.190,W,0.0,138.9,170720,,,A*15
$GPGGA,230854.10,3731.5040203,N,12221.1902730,W,1,16,0.8,169.66,M,-32.57,M,,*52
$GPRMC,230854.10,A,3731.504,N,12221.190,W,0.0,138.9,170720,,,A*14
$GPGGA,230854.20,3731.5040203,N,12221.1902730,W,1,16,0.8,169.66,M,-32.57,M,,*51
$GPRMC,230854.20,A,3731.504,N,12221.190,W,0.0,138.9,170720,,,A*17
$GPGGA,230854.30,3731.5040203,N,12221.1902730,W,1,16,0.8,169.66,M,-32.57,M,,*50
$GPRMC,230854.30,A,3731.504,N,12221.190,W,0.0,138.9,170720,,,A*16
$GPGGA,230854.40,3731.5040203,N,12221.1902730,W,1,16,0.8,169.66,M,-32.57,M,,*57
$GPRMC,230854.40,A,3731.504,N,12221.190,W,0.0,138.9,170720,,,A*11
$GPGGA,230854.50,3731.5040203,N,12221.1902730,W,1,16,0.8,169.66,M,-32.57,M,,*56
$GPRMC,230854.50,A,3731.504,N,12221.190,W,0.0,138.9,170720,,,A*10
$GPGGA,230854.60,3731.5040203,N,12221.1902730,W,1,16,0.8,169.66,M,-32.57,M,,*55
$GPRMC,230854.60,A,3731.504,N,12221.190,W,0.0,138.9,170720,,,A*13
$GPGGA,230854.70,3731.5040203,N,12221.1902730,W,1,16,0.8,169.66,M,-32.57,M,,*54
$GPRMC,230854.70,A,3731.504,N,12221.190,W,0.0,138.9,170720,,,A*12
$GPGGA,230854.80,3731.5040203,N,12221.1902730,W,1,16,0.8,169.66,M,-32.57,M,,*5B
$GPRMC,230854.80,A,3731.504,N,12221.190,W,0.0,138.9,170720,,,A*64
$GPGGA,230854.90,3731.5040203,N,12221.1902730,W,1,16,0.8,169.66,M,-32.57,M,,*5A
$GPRMC,230854.90,A,3731.504,N,12221.190,W,0.0,138.9,170720,,,A*67
$GPGGA,230855.00,3731.5040203,N,12221.1902730,W,1,16,0.8,169.66,M,-32.57,M,,*52
$GPRMC,230855.00,A,3731.504,N,12221.190,W,0.0,138.9,170720,,,A*14
$GPGGA,230855.10,3731.5040203,N,12221.1902730,W,1,16,0.8,169.66,M,-32.57,M,,*53
$GPRMC,230855.10,A,3731.504,N,12221.190,W,0.0,138.9,170720,,,A*15
$GPGGA,230855.20,3731.5040203,N,12221.1902730,W,1,16,0.8,169.66,M,-32.57,M,,*50
$GPRMC,230855.20,A,3731.504,N,12221.190,W,0.0,138.9,170720,,,A*16
$GPGGA,230855.30,3731.5040203,N,12221.1902730,W,1,16,0.8,169.66,M,-32.57,M,,*51
$GPRMC,230855.30,A,3731.504,N,12221.190,W,0.0,138.9,170720,,,A*17
$GPGGA,230855.40,3731.5040203,N,12221.1902730,W,1,16,0.8,169.66,M,-32.57,M,,*56
$GPRMC,230855.40,A,3731.504,N,12221.190,W,0.0,138.9,170720,,,A*10
$GPGGA,230855.50,3731.5040203,N,12221.1902730,W,1,16,0.8,169.66,M,-32.57,M,,*57
$GPRMC,230855.50,A,3731.504,N,12221.190,W,0.0,138.9,170720,,,A*11
$GPGGA,230855.60,3731.5040203,N,12221.1902730,W,1,16,0.8,169.66,M,-32.57,M,,*54
$GPRMC,230855.60,A,3731.504,N,12221.190,W,0.0,138.9,170720,,,A*12
$GPGGA,230855.70,3731.5040203,N,12221.1902730,W,1,16,0.8,169.66,M,-32.57,M,,*55
$GPRMC,230855.70,A,3731.504,N,12221.190,W,0.0,138.9,170720,,,A*13
$GPGGA,230855.80,3731.5040203,N,12221.1902730,W,1,16,0.8,169.66,M,-32.57,M,,*5A
$GPRMC,230855.80,A,3731.504,N,12221.190,W,0.0,138.9,170720,,,A*67
$GPGGA,230855.90,3731.5040203,N,12221.1902730,W,1,16,0.8,169.66,M,-32.57,M,,*5B
$GPRMC,230855.90,A,3731.504,N,12221.190,W,0.0,138.9,170720,,,A*64
$GPGGA,230856.00,3731.5040203,N,12221.1902730,W,1,16,0.8,169.66,M,-32.57,M,,*51
$GPRMC,230856.00,A,3731.504,N,12221.190,W,0.0,138.9,170720,,,A*17
$GPGGA,230856.10,3731.5040203,N,12221.1902730,W,1,16,0.8,169.66,M,-32.57,M,,*50
$GPRMC,230856.10,A,3731.504,N,12221.190,W,0.0,138.9,170720,,,A*16
$GPGGA,230856.20,3731.5040203,N,12221.1902730,W,1,16,0.8,169.66,M,-32.57,M,,*53
$GPRMC,230856.20,A,3731.504,N,12221.190,W,0.0,138.9,170720,,,A*15
$GPGGA,230856.30,3731.5040203,N,12221.1902730,W,1,16,0.8,169.66,M,-32.57,M,,*52
$GPRMC,230856.30,A,3731.504,N,12221.190,W,0.0,138.9,170720,,,A*14
$GPGGA,230856.40,3731.5040203,N,12221.1902730,W,1,16,0.8,169.66,M,-32.57,M,,*55
$GPRMC,230856.40,A,3731.504,N,12221.190,W,0.0,138.9,170720,,,A*13
$GPGGA,230856.50,3731.5040203,N,12221.1902730,W,1,16,0.8,169.66,M,-32.57,M,,*54
$GPRMC,230856.50,A,3731.504,N,12221.190,W,0.0,138.9,170720,,,A*12
$GPGGA,230856.60,3731.5040203,N,12221.1902730,W,1,16,0.8,169.66,M,-32.57,M,,*57
$GPRMC,230856.60,A,3731.504,N,12221.190,W,0.0,138.9,170720,,,A*11
$GPGGA,230856.70,3731.5040203,N,12221.1902730,W,1,16,0.8,169.66,M,-32.57,M,,*56
$GPRMC,230856.70,A,3731.504,N,12221.190,W,0.0,138.9,170720,,,A*10
$GPGGA,230856.80,3731.5040203,N,12221.1902730,W,1,16,0.8,169.66,M,-32.57,M,,*59
$GPRMC,230856.80,A,3731.504,N,12221.190,W,0.0,138.9,170720,,,A*1F
$GPGGA,230856.90,3731.5040203,N,12221.1902730,W,1,16,0.8,169.66,M,-32.57,M,,*58
$GPRMC,230856.90,A,3731.504,N,12221.190,W,0.0,138.9,170720,,,A*1E
$GPGGA,230857.00,3731.5040203,N,12221.1902730,W,1,16,0.8,169.66,M,-32.57,M,,*50
$GPRMC,230857.00,A,3731.504,N,12221.190,W,0.0,138.9,170720,,,A*16
$GPGGA,230857.10,3731.5040203,N,12221.1902730,W,1,16,0.8,169.66,M,-32.57,M,,*51
$GPRMC,230857.10,A,3731.504,N,12221.190,W,0.0,138.9,170720,,,A*17
$GPGGA,230857.20,3731.5040203,N,12221.1902730,W,1,16,0.8,169.66,M,-32.57,M,,*52
$GPRMC,230857.20,A,3731.504,N,12221.190,W,0.0,138.9,170720,,,A*14
$GPGGA,230857.30,3731.5040203,N,12221.1902730,W,1,16,0.8,169.66,M,-32.57,M,,*53
$GPRMC,230857.30,A,3731.504,N,12221.190,W,0.0,138.9,170720,,,A*15
$GPGGA,230857.40,3731.5040203,N,12221.1902730,W,1,16,0.8,169.66,M,-32.57,M,,*54
$GPRMC,230857.40,A,3731.504,N,12221.190,W,0.0,138.9,170720,,,A*12
$GPGGA,230857.50,3731.5040203,N,12221.1902730,W,1,16,0.8,169.66,M,-32.57,M,,*55
$GPRMC,230857.50,A,3731.504,N,12221.190,W,0.0,138.9,170720,,,A*13
$GPGGA,230857.60,3731.5040203,N,12221.1902730,W,1,16,0.8,169.66,M,-32.57,M,,*56
$GPRMC,230857.60,A,3731.504,N,12221.190,W,0.0,138.9,170720,,,A*10
$GPGGA,230857.70,3731.5040203,N,12221.1902730,W,1,16,0.8,169.66,M,-32.57,M,,*57
$GPRMC,230857.70,A,3731.504,N,12221.190,W,0.0,138.9,170720,,,A*11
$GPGGA,230857.80,3731.5040203,N,12221.1902730,W,1,16,0.8,169.66,M,-32.57,M,,*58
$GPRMC,230857.80,A,3731.504,N,12221.190,W,0.0,138.9,170720,,,A*1E
$GPGGA,230857.90,3731.5040203,N,12221.1902730,W,1,16,0.8,169.66,M,-32.57,M,,*59
$GPRMC,230857.90,A,3731.504,N,12221.190,W,0.0,138.9,170720,,,A*1F
$GPGGA,230858.00,3731.5040203,N,12221.1902730,W,1,16,0.8,169.66,M,-32.57,M,,*5F
$GPRMC,230858.00,A,3731.504,N,12221.190,W,0.0,138.9,170720,,,A*60
$GPGGA,230858.10,3731.5040203,N,12221.1902730,W,1,16,0.8,169.66,M,-32.57,M,,*5E
$GPRMC,230858.10,A,3731.504,N,12221.190,W,0.0,138.9,170720,,,A*63
$GPGGA,230858.20,3731.5040203,N,12221.1902730,W,1,16,0.8,169.66,M,-32.57,M,,*5D
$GPRMC,230858.20,A,3731.504,N,12221.190,W,0.0,138.9,170720,,,A*62
$GPGGA,230858.30,3731.5040203,N,12221.1902730,W,1,16,0.8,169.66,M,-32.57,M,,*5C
$GPRMC,230858.30,A,3731.504,N,12221.190,W,0.0,138.9,170720,,,A*65
$GPGGA,230858.40,3731.5040203,N,12221.1902730,W,1,16,0.8,169.66,M,-32.57,M,,*5B
$GPRMC,230858.40,A,3731.504,N,12221.190,W,0.0,138.9,170720,,,A*64
$GPGGA,230858.50,3731.5040203,N,12221.1902730,W,1,16,0.8,169.66,M,-32.57,M,,*5A
$GPRMC,230858.50,A,3731.504,N,12221.190,W,0.0,138.9,170720,,,A*67
$GPGGA,230858.60,3731.5040203,N,12221.1902730,W,1,16,0.8,169.66,M,-32.57,M,,*59
$GPRMC,230858.60,A,3731.504,N,12221.190,W,0.0,138.9,170720,,,A*1F
$GPGGA,230858.70,3731.5040203,N,12221.1902730,W,1,16,0.8,169.66,M,-32.57,M,,*58
$GPRMC,230858.70,A,3731.504,N,12221.190,W,0.0,138.9,170720,,,A*1E
$GPGGA,230858.80,3731.5040203,N,12221.1902730,W,1,16,0.8,169.66,M,-32.57,M,,*57
$GPRMC,230858.80,A,3731.504,N,12221.190,W,0.0,138.9,170720,,,A*11
$GPGGA,230858.90,3731.5040203,N,12221.1902730,W,1,16,0.8,169.66,M,-32.57,M,,*56
$GPRMC,230858.90,A,3731.504,N,12221.190,W,0.0,138.9,170720,,,A*10
$GPGGA,230859.00,3731.5040203,N,12221.1902730,W,1,16,0.8,169.66,M,-32.57,M,,*5E
$GPRMC,230859.00,A,3731.504,N,12221.190,W,0.0,138.9,170720,,,A*63
$GPGGA,230859.10,3731.5040203,N,12221.1902730,W,1,16,0.8,169.66,M,-32.57,M,,*5F
$GPRMC,230859.10,A,3731.504,N,12221.190,W,0.0,138.9,170720,,,A*60
$GPGGA,230859.20,3731.5040203,N,12221.1902730,W,1,16,0.8,169.66,M,-32.57,M,,*5C
$GPRMC,230859.20,A,3731.504,N,12221.190,W,0.0,138.9,170720,,,A*65
$GPGGA,230859.30,3731.5040203,N,12221.1902730,W,1,16,0.8,169.66,M,-32.57,M,,*5D
$GPRMC,230859.30,A,3731.504,N,12221.190,W,0.0,138.9,170720,,,A*62
$GPGGA,230859.40,3731.5040203,N,12221.1902730,W,1,16,0.8,169.66,M,-32.57,M,,*5A
$GPRMC,230859.40,A,3731.504,N,12221.190,W,0.0,138.9,170720,,,A*67
$GPGGA,230859.50,3731.5040203,N,12221.1902730,W,1,16,0.8,169.66,M,-32.57,M,,*5B
$GPRMC,230859.50,A,3731.504,N,12221.190,W,0.0,138.9,170720,,,A*64
$GPGGA,230859.60,3731.5040203,N,12221.1902730,W,1,16,0.8,169.66,M,-32.57,M,,*58
$GPRMC,230859.60,A,3731.504,N,12221.190,W,0.0,138.9,170720,,,A*1E
$GPGGA,230859.70,3731.5040203,N,12221.1902730,W,1,16,0.8,169.66,M,-32.57,M,,*59
$GPRMC,230859.70,A,3731.504,N,12221.190,W,0.0,138.9,170720,,,A*1F
$GPGGA,230859.80,3731.5040203,N,12221.1902730,W,1,16,0.8,169.66,M,-32.57,M,,*56
$GPRMC,230859.80,A,3731.504,N,12221.190,W,0.0,138.9,170720,,,A*10
$GPGGA,230859.90,3731.5040203,N,12221.1902730,W,1,16,0.8,169.66,M,-32.57,M,,*57
$GPRMC,230859.90,A,3731.504,N,12221.190,W,0.0,138.9,170720,,,A*11
$GPGGA,230900.00,3731.5040203,N,12221.1902730,W,1,16,0.8,169.66,M,-32.57,M,,*53
$GPRMC,230900.00,A,3731.504,N,12221.190,W,0.0,138.9,170720,,,A*15
$GPGGA,230900.10,3731.5040203,N,12221.1902730,W,1,16,0.8,169.66,M,-32.57,M,,*52
$GPRMC,230900.10,A,3731.504,N,12221.190,W,0.0,138.9,170720,,,A*14
$GPGGA,230900.20,3731.5040203,N,12221.1902730,W,1,16,0.8,169.66,M,-32.57,M,,*51
$GPRMC,230900.20,A,3731.504,N,12221.190,W,0.0,138.9,170720,,,A*17
$GPGGA,230900.30,3731.5040203,N,12221.1902730,W,1,16,0.8,169.66,M,-32.57,M,,*50
$GPRMC,230900.30,A,3731.504,N,12221.190,W,0.0,138.9,170720,,,A*16
$GPGGA,230900.40,3731.5040203,N,12221.1902731,W,1,16,0.8,169.66,M,-32.57,M,,*56
$GPRMC,230900.40,A,3731.504,N,12221.190,W,0.0,138.9,170720,,,A*11
$GPGGA,230900.50,3731.5040203,N,12221.1902731,W,1,16,0.8,169.66,M,-32.57,M,,*57
$GPRMC,230900.50,A,3731.504,N,12221.190,W,0.0,138.9,170720,,,A*10
$GPGGA,230900.60,3731.5040203,N,12221.1902729,W,1,16,0.8,169.66,M,-32.57,M,,*5D
$GPRMC,230900.60,A,3731.504,N,12221.190,W,0.0,138.9,170720,,,A*6A
$GPGGA,230900.70,3731.5040203,N,12221.1902730,W,1,16,0.8,169.66,M,-32.57,M,,*54
$GPRMC,230900.70,A,3731.504,N,12221.190,W,0.0,138.9,170720,,,A*12
$GPGGA,230900.80,3731.5040203,N,12221.1902731,W,1,16,0.8,169.66,M,-32.57,M,,*5A
$GPRMC,230900.80,A,3731.504,N,12221.190,W,0.0,138.9,170720,,,A*66
$GPGGA,230900.90,3731.5040203,N,12221.1902730,W,1,16,0.8,169.66,M,-32.57,M,,*5A
$GPRMC,230900.90,A,3731.504,N,12221.190,W,0.0,138.9,170720,,,A*67
$GPGGA,230901.00,3731.5040203,N,12221.1902730,W,1,16,0.8,169.66,M,-32.57,M,,*52
$GPRMC,230901.00,A,3731.504,N,12221.190,W,0.0,138.9,170720,,,A*14
$GPGGA,230901.10,3731.5040203,N,12221.1902730,W,1,16,0.8,169.66,M,-32.57,M,,*53
$GPRMC,230901.10,A,3731.504,N,12221.190,W,0.0,138.9,170720,,,A*15
$GPGGA,230901.20,3731.5040203,N,12221.1902730,W,1,16,0.8,169.66,M,-32.57,M,,*50
$GPRMC,230901.20,A,3731.504,N,12221.190,W,0.0,138.9,170720,,,A*16
$GPGGA,230901.30,3731.5040203,N,12221.1902731,W,1,16,0.8,169.66,M,-32.57,M,,*50
$GPRMC,230901.30,A,3731.504,N,12221.190,W,0.0,138.9,170720,,,A*17
$GPGGA,230901.40,3731.5040203,N,12221.1902730,W,1,16,0.8,169.66,M,-32.57,M,,*56
$GPRMC,230901.40,A,3731.504,N,12221.190,W,0.0,138.9,170720,,,A*10
$GPGGA,230901.50,3731.5040203,N,12221.1902730,W,1,16,0.8,169.66,M,-32.57,M,,*57
$GPRMC,230901.50,A,3731.504,N,12221.190,W,0.0,138.9,170720,,,A*11
$GPGGA,230901.60,3731.5040203,N,12221.1902730,W,1,16,0.8,169.66,M,-32.57,M,,*54
$GPRMC,230901.60,A,3731.504,N,12221.190,W,0.0,138.9,170720,,,A*12
$GPGGA,230901.70,3731.5040203,N,12221.1902730,W,1,16,0.8,169.66,M,-32.57,M,,*55
$GPRMC,230901.70,A,3731.504,N,12221.190,W,0.0,138.9,170720,,,A*13
$GPGGA,230901.80,3731.5040203,N,12221.1902730,W,1,16,0.8,169.66,M,-32.57,M,,*5A
$GPRMC,230901.80,A,3731.504,N,12221.190,W,0.0,138.9,170720,,,A*67
$GPGGA,230901.90,3731.5040203,N,12221.1902730,W,1,16,0.8,169.66,M,-32.57,M,,*5B
$GPRMC,230901.90,A,3731.504,N,12221.190,W,0.0,138.9,170720,,,A*64
$GPGGA,230902.00,3731.5040203,N,12221.1902730,W,1,16,0.8,169.66,M,-32.57,M,,*51
$GPRMC,230902.00,A,3731.504,N,12221.190,W,0.0,138.9,170720,,,A*17
$GPGGA,230902.10,3731.5040203,N,12221.1902730,W,1,16,0.8,169.66,M,-32.57,M,,*50
$GPRMC,230902.10,A,3731.504,N,12221.190,W,0.0,138.9,170720,,,A*16
$GPGGA,230902.20,3731.5040203,N,12221.1902730,W,1,16,0.8,169.66,M,-32.57,M,,*53
$GPRMC,230902.20,A,3731.504,N,12221.190,W,0.0,138.9,170720,,,A*15
$GPGGA,230902.30,3731.5040203,N,12221.1902730,W,1,16,0.8,169.66,M,-32.57,M,,*52
$GPRMC,230902.30,A,3731.504,N,12221.190,W,0.0,138.9,170720,,,A*14
$GPGGA,230902.40,3731.5040203,N,12221.1902730,W,1,16,0.8,169.66,M,-32.57,M,,*55
$GPRMC,230902.40,A,3731.504,N,12221.190,W,0.0,138.9,170720,,,A*13
$GPGGA,230902.50,3731.5040203,N,12221.1902730,W,1,16,0.8,169.66,M,-32.57,M,,*54
$GPRMC,230902.50,A,3731.504,N,12221.190,W,0.0,138.9,170720,,,A*12
$GPGGA,230902.60,3731.5040203,N,12221.1902730,W,1,16,0.8,169.66,M,-32.57,M,,*57
$GPRMC,230902.60,A,3731.504,N,12221.190,W,0.0,138.9,170720,,,A*11
$GPGGA,230902.70,3731.5040203,N,12221.1902730,W,1,16,0.8,169.66,M,-32.57,M,,*56
$GPRMC,230902.70,A,3731.504,N,12221.190,W,0.0,138.9,170720,,,A*10
$GPGGA,230902.80,3731.5040203,N,12221.1902730,W,1,16,0.8,169.66,M,-32.57,M,,*59
$GPRMC,230902.80,A,3731.504,N,12221.190,W,0.0,138.9,170720,,,A*1F
$GPGGA,230902.90,3731.5040203,N,12221.1902730,W,1,16,0.8,169.66,M,-32.57,M,,*58
$GPRMC,230902.90,A,3731.504,N,12221.190,W,0.0,138.9,170720,,,A*1E
$GPGGA,230903.00,3731.5040203,N,12221.1902730,W,1,16,0.8,169.66,M,-32.57,M,,*50
$GPRMC,230903.00,A,3731.504,N,12221.190,W,0.0,138.9,170720,,,A*16
$GPGGA,230903.10,3731.5040203,N,12221.1902730,W,1,16,0.8,169.66,M,-32.57,M,,*51
$GPRMC,230903.10,A,3731.504,N,12221.190,W,0.0,138.9,170720,,,A*17
$GPGGA,230903.20,3731.5040203,N,12221.1902730,W,1,16,0.8,169.66,M,-32.57,M,,*52
$GPRMC,230903.20,A,3731.504,N,12221.190,W,0.0,138.9,170720,,,A*14
$GPGGA,230903.30,3731.5040203,N,12221.1902730,W,1,16,0.8,169.66,M,-32.57,M,,*53
$GPRMC,230903.30,A,3731.504,N,12221.190,W,0.0,138.9,170720,,,A*15
$GPGGA,230903.40,3731.5040203,N,12221.1902730,W,1,16,0.8,169.66,M,-32.57,M,,*54
$GPRMC,230903.40,A,3731.504,N,12221.190,W,0.0,138.9,170720,,,A*12
$GPGGA,230903.50,3731.5040203,N,12221.1902730,W,1,16,0.8,169.66,M,-32.57,M,,*55
$GPRMC,230903.50,A,3731.504,N,12221.190,W,0.0,138.9,170720,,,A*13
$GPGGA,230903.60,3731.5040203,N,12221.1902730,W,1,16,0.8,169.66,M,-32.57,M,,*56
$GPRMC,230903.60,A,3731.504,N,12221.190,W,0.0,138.9,170720,,,A*10
$GPGGA,230903.70,3731.5040203,N,12221.1902730,W,1,16,0.8,169.66,M,-32.57,M,,*57
$GPRMC,230903.70,A,3731.504,N,12221.190,W,0.0,138.9,170720,,,A*11
$GPGGA,230903.80,3731.5040203,N,12221.1902730,W,1,16,0.8,169.66,M,-32.57,M,,*58
$GPRMC,230903.80,A,3731.504,N,12221.190,W,0.0,138.9,170720,,,A*1E
$GPGGA,230903.90,3731.5040203,N,12221.1902730,W,1,16,0.8,169.66,M,-32.57,M,,*59
$GPRMC,230903.90,A,3731.504,N,12221.190,W,0.0,138.9,170720,,,A*1F
$GPGGA,230904.00,3731.5040203,N,12221.1902730,W,1,16,0.8,169.66,M,-32.57,M,,*57
$GPRMC,230904.00,A,3731.504,N,12221.190,W,0.0,138.9,170720,,,A*11
$GPGGA,230904.10,3731.5040203,N,12221.1902730,W,1,16,0.8,169.66,M,-32.57,M,,*56
$GPRMC,230904.10,A,3731.504,N,12221.190,W,0.0,138.9,170720,,,A*10
$GPGGA,230904.20,3731.5040203,N,12221.1902730,W,1,16,0.8,169.66,M,-32.57,M,,*55
$GPRMC,230904.20,A,3731.504,N,12221.190,W,0.0,138.9,170720,,,A*13
$GPGGA,230904.30,3731.5040203,N,12221.1902730,W,1,16,0.8,169.66,M,-32.57,M,,*54
$GPRMC,230904.30,A,3731.504,N,12221.190,W,0.0,138.9,170720,,,A*12
$GPGGA,230904.40,3731.5040203,N,12221.1902730,W,1,16,0.8,169.66,M,-32.57,M,,*53
$GPRMC,230904.40,A,3731.504,N,12221.190,W,0.0,138.9,170720,,,A*15
$GPGGA,230904.50,3731.5040203,N,12221.1902730,W,1,16,0.8,169.66,M,-32.57,M,,*52
$GPRMC,230904.50,A,3731.504,N,12221.190,W,0.0,138.9,170720,,,A*14
$GPGGA,230904.60,3731.5040203,N,12221.1902730,W,1,16,0.8,169.66,M,-32.57,M,,*51
$GPRMC,230904.60,A,3731.504,N,12221.190,W,0.0,138.9,170720,,,A*17
$GPGGA,230904.70,3731.5040203,N,12221.1902730,W,1,16,0.8,169.66,M,-32.57,M,,*50
$GPRMC,230904.70,A,3731.504,N,12221.190,W,0.0,138.9,170720,,,A*16
$GPGGA,230904.80,3731.5040203,N,12221.1902730,W,1,16,0.8,169.66,M,-32.57,M,,*5F
$GPRMC,230904.80,A,3731.504,N,12221.190,W,0.0,138.9,170720,,,A*60
$GPGGA,230904.90,3731.5040203,N,12221.1902730,W,1,16,0.8,169.66,M,-32.57,M,,*5E
$GPRMC,230904.90,A,3731.504,N,12221.190,W,0.0,138.9,170720,,,A*63
$GPGGA,230905.00,3731.5040203,N,12221.1902730,W,1,16,0.8,169.66,M,-32.57,M,,*56
$GPRMC,230905.00,A,3731.504,N,12221.190,W,0.0,138.9,170720,,,A*10
$GPGGA,230905.10,3731.5040203,N,12221.1902730,W,1,16,0.8,169.66,M,-32.57,M,,*57
$GPRMC,230905.10,A,3731.504,N,12221.190,W,0.0,138.9,170720,,,A*11
$GPGGA,230905.20,3731.5040203,N,12221.1902730,W,1,16,0.8,169.66,M,-32.57,M,,*54
$GPRMC,230905.20,A,3731.504,N,12221.190,W,0.0,138.9,170720,,,A*12
$GPGGA,230905.30,3731.5040203,N,12221.1902730,W,1,16,0.8,169.66,M,-32.57,M,,*55
$GPRMC,230905.30,A,3731.504,N,12221.190,W,0.0,138.9,170720,,,A*13
$GPGGA,230905.40,3731.5040203,N,12221.1902730,W,1,16,0.8,169.66,M,-32.57,M,,*52
$GPRMC,230905.40,A,3731.504,N,12221.190,W,0.0,138.9,170720,,,A*14
$GPGGA,230905.50,3731.5040203,N,12221.1902730,W,1,16,0.8,169.66,M,-32.57,M,,*53
$GPRMC,230905.50,A,3731.504,N,12221.190,W,0.0,138.9,170720,,,A*15
$GPGGA,230905.60,3731.5040203,N,12221.1902730,W,1,16,0.8,169.66,M,-32.57,M,,*50
$GPRMC,230905.60,A,3731.504,N,12221.190,W,0.0,138.9,170720,,,A*16
$GPGGA,230905.70,3731.5040203,N,12221.1902730,W,1,16,0.8,169.66,M,-32.57,M,,*51
$GPRMC,230905.70,A,3731.504,N,12221.190,W,0.0,138.9,170720,,,A*17
$GPGGA,230905.80,3731.5040203,N,12221.1902730,W,1,16,0.8,169.66,M,-32.57,M,,*5E
$GPRMC,230905.80,A,3731.504,N,12221.190,W,0.0,138.9,170720,,,A*63
$GPGGA,230905.90,3731.5040203,N,12221.1902730,W,1,16,0.8,169.66,M,-32.57,M,,*5F
$GPRMC,230905.90,A,3731.504,N,12221.190,W,0.0,138.9,170720,,,A*60
$GPGGA,230906.00,3731.5040203,N,12221.1902730,W,1,16,0.8,169.66,M,-32.57,M,,*55
$GPRMC,230906.00,A,3731.504,N,12221.190,W,0.0,138.9,170720,,,A*13
$GPGGA,230906.10,3731.5040203,N,12221.1902730,W,1,16,0.8,169.66,M,-32.57,M,,*54
$GPRMC,230906.10,A,3731.504,N,12221.190,W,0.0,138.9,170720,,,A*12
$GPGGA,230906.20,3731.5040203,N,12221.1902730,W,1,16,0.8,169.66,M,-32.57,M,,*57
$GPRMC,230906.20,A,3731.504,N,12221.190,W,0.0,138.9,170720,,,A*11
$GPGGA,230906.30,3731.5040203,N,12221.1902730,W,1,16,0.8,169.66,M,-32.57,M,,*56
$GPRMC,230906.30,A,3731.504,N,12221.190,W,0.0,138.9,170720,,,A*10
$GPGGA,230906.40,3731.5040203,N,12221.1902730,W,1,16,0.8,169.66,M,-32.57,M,,*51
$GPRMC,230906.40,A,3731.504,N,12221.190,W,0.0,138.9,170720,,,A*17
$GPGGA,230906.50,3731.5040203,N,12221.1902730,W,1,16,0.8,169.66,M,-32.57,M,,*50
$GPRMC,230906.50,A,3731.504,N,12221.190,W,0.0,138.9,170720,,,A*16
$GPGGA,230906.60,3731.5040203,N,12221.1902730,W,1,16,0.8,169.66,M,-32.57,M,,*53
$GPRMC,230906.60,A,3731.504,N,12221.190,W,0.0,138.9,170720,,,A*15
$GPGGA,230906.70,3731.5040203,N,12221.1902730,W,1,16,0.8,169.66,M,-32.57,M,,*52
$GPRMC,230906.70,A,3731.504,N,12221.190,W,0.0,138.9,170720,,,A*14
$GPGGA,230906.80,3731.5040203,N,12221.1902730,W,1,16,0.8,169.66,M,-32.57,M,,*5D
$GPRMC,230906.80,A,3731.504,N,12221.190,W,0.0,138.9,170720,,,A*62
$GPGGA,230906.90,3731.5040203,N,12221.1902730,W,1,16,0.8,169.66,M,-32.57,M,,*5C
$GPRMC,230906.90,A,3731.504,N,12221.190,W,0.0,138.9,170720,,,A*65
$GPGGA,230907.00,3731.5040203,N,12221.1902730,W,1,16,0.8,169.66,M,-32.57,M,,*54
$GPRMC,230907.00,A,3731.504,N,12221.190,W,0.0,138.9,170720,,,A*12
$GPGGA,230907.10,3731.5040203,N,12221.1902730,W,1,16,0.8,169.66,M,-32.57,M,,*55
$GPRMC,230907.10,A,3731.504,N,12221.190,W,0.0,138.9,170720,,,A*13
$GPGGA,230907.20,3731.5040203,N,12221.1902730,W,1,16,0.8,169.66,M,-32.57,M,,*56
$GPRMC,230907.20,A,3731.504,N,12221.190,W,0.0,138.9,170720,,,A*10
$GPGGA,230907.30,3731.5040203,N,12221.1902730,W,1,16,0.8,169.66,M,-32.57,M,,*57
$GPRMC,230907.30,A,3731.504,N,12221.190,W,0.0,138.9,170720,,,A*11
$GPGGA,230907.40,3731.5040203,N,12221.1902730,W,1,16,0.8,169.66,M,-32.57,M,,*50
$GPRMC,230907.40,A,3731.504,N,12221.190,W,0.0,138.9,170720,,,A*16
$GPGGA,230907.50,3731.5040203,N,12221.1902730,W,1,16,0.8,169.66,M,-32.57,M,,*51
$GPRMC,230907.50,A,3731.504,N,12221.190,W,0.0,138.9,170720,,,A*17
$GPGGA,230907.60,3731.5040203,N,12221.1902730,W,1,16,0.8,169.66,M,-32.57,M,,*52
$GPRMC,230907.60,A,3731.504,N,12221.190,W,0.0,138.9,170720,,,A*14
$GPGGA,230907.70,3731.5040203,N,12221.1902730,W,1,16,0.8,169.66,M,-32.57,M,,*53
$GPRMC,230907.70,A,3731.504,N,12221.190,W,0.0,138.9,170720,,,A*15
$GPGGA,230907.80,3731.5040203,N,12221.1902730,W,1,16,0.8,169.66,M,-32.57,M,,*5C
$GPRMC,230907.80,A,3731.504,N,12221.190,W,0.0,138.9,170720,,,A*65
$GPGGA,230907.90,3731.5040203,N,12221.1902730,W,1,16,0.8,169.66,M,-32.57,M,,*5D
$GPRMC,230907.90,A,3731.504,N,12221.190,W,0.0,138.9,170720,,,A*62
$GPGGA,230908.00,3731.5040203,N,12221.1902730,W,1,16,0.8,169.66,M,-32.57,M,,*5B
$GPRMC,230908.00,A,3731.504,N,12221.190,W,0.0,138.9,170720,,,A*64
$GPGGA,230908.10,3731.5040203,N,12221.1902730,W,1,16,0.8,169.66,M,-32.57,M,,*5A
$GPRMC,230908.10,A,3731.504,N,12221.190,W,0.0,138.9,170720,,,A*67
$GPGGA,230908.20,3731.5040203,N,12221.1902730,W,1,16,0.8,169.66,M,-32.57,M,,*59
$GPRMC,230908.20,A,3731.504,N,12221.190,W,0.0,138.9,170720,,,A*1F
$GPGGA,230908.30,3731.5040203,N,12221.1902730,W,1,16,0.8,169.66,M,-32.57,M,,*58
$GPRMC,230908.30,A,3731.504,N,12221.190,W,0.0,138.9,170720,,,A*1E
$GPGGA,230908.40,3731.5040203,N,12221.1902730,W,1,16,0.8,169.66,M,-32.57,M,,*5F
$GPRMC,230908.40,A,3731.504,N,12221.190,W,0.0,138.9,170720,,,A*60
$GPGGA,230908.50,3731.5040203,N,12221.1902730,W,1,16,0.8,169.66,M,-32.57,M,,*5E
$GPRMC,230908.50,A,3731.504,N,12221.190,W,0.0,138.9,170720,,,A*63
$GPGGA,230908.60,3731.5040203,N,12221.1902730,W,1,16,0.8,169.66,M,-32.57,M,,*5D
$GPRMC,230908.60,A,3731.504,N,12221.190,W,0.0,138.9,170720,,,A*62
$GPGGA,230908.70,3731.5040203,N,12221.1902730,W,1,16,0.8,169.66,M,-32.57,M,,*5C
$GPRMC,230908.70,A,3731.504,N,12221.190,W,0.0,138.9,170720,,,A*65
$GPGGA,230908.80,3731.5040203,N,12221.1902730,W,1,16,0.8,169.66,M,-32.57,M,,*53
$GPRMC,230908.80,A,3731.504,N,12221.190,W,0.0,138.9,170720,,,A*15
$GPGGA,230908.90,3731.5040203,N,12221.1902730,W,1,16,0.8,169.66,M,-32.57,M,,*52
$GPRMC,230908.90,A,3731.504,N,12221.190,W,0.0,138.9,170720,,,A*14
$GPGGA,230909.00,3731.5040203,N,12221.1902730,W,1,16,0.8,169.66,M,-32.57,M,,*5A
$GPRMC,230909.00,A,3731.504,N,12221.190,W,0.0,138.9,170720,,,A*67
$GPGGA,230909.10,3731.5040203,N,12221.1902730,W,1,16,0.8,169.66,M,-32.57,M,,*5B
$GPRMC,230909.10,A,3731.504,N,12221.190,W,0.0,138.9,170720,,,A*64
$GPGGA,230909.20,3731.5040203,N,12221.1902730,W,1,16,0.8,169.66,M,-32.57,M,,*58
$GPRMC,230909.20,A,3731.504,N,12221.190,W,0.0,138.9,170720,,,A*1E
$GPGGA,230909.30,3731.5040203,N,12221.1902730,W,1,16,0.8,169.66,M,-32.57,M,,*59
$GPRMC,230909.30,A,3731.504,N,12221.190,W,0.0,138.9,170720,,,A*1F
$GPGGA,230909.40,3731.5040203,N,12221.1902730,W,1,16,0.8,169.66,M,-32.57,M,,*5E
$GPRMC,230909.40,A,3731.504,N,12221.190,W,0.0,138.9,170720,,,A*63
$GPGGA,230909.50,3731.5040203,N,12221.1902730,W,1,16,0.8,169.66,M,-32.57,M,,*5F
$GPRMC,230909.50,A,3731.504,N,12221.190,W,0.0,138.9,170720,,,A*60
$GPGGA,230909.60,3731.5040203,N,12221.1902730,W,1,16,0.8,169.66,M,-32.57,M,,*5C
$GPRMC,230909.60,A,3731.504,N,12221.190,W,0.0,138.9,170720,,,A*65
$GPGGA,230909.70,3731.5040203,N,12221.1902730,W,1,16,0.8,169.66,M,-32.57,M,,*5D
$GPRMC,230909.70,A,3731.504,N,12221.190,W,0.0,138.9,170720,,,A*62
$GPGGA,230909.80,3731.5040203,N,12221.1902730,W,1,16,0.8,169.66,M,-32.57,M,,*52
$GPRMC,230909.80,A,3731.504,N,12221.190,W,0.0,138.9,170720,,,A*14
$GPGGA,230909.90,3731.5040203,N,12221.1902730,W,1,16,0.8,169.66,M,-32.57,M,,*53
$GPRMC,230909.90,A,3731.504,N,12221.190,W,0.0,138.9,170720,,,A*15
$GPGGA,230910.00,3731.5040203,N,12221.1902730,W,1,16,0.8,169.66,M,-32.57,M,,*52
$GPRMC,230910.00,A,3731.504,N,12221.190,W,0.0,138.9,170720,,,A*14
$GPGGA,230910.10,3731.5040203,N,12221.1902730,W,1,16,0.8,169.66,M,-32.57,M,,*53
$GPRMC,230910.10,A,3731.504,N,12221.190,W,0.0,138.9,170720,,,A*15
$GPGGA,230910.20,3731.5040203,N,12221.1902730,W,1,16,0.8,169.66,M,-32.57,M,,*50
$GPRMC,230910.20,A,3731.504,N,12221.190,W,0.0,138.9,170720,,,A*16
$GPGGA,230910.30,3731.5040203,N,12221.1902730,W,1,16,0.8,169.66,M,-32.57,M,,*51
$GPRMC,230910.30,A,3731.504,N,12221.190,W,0.0,138.9,170720,,,A*17
$GPGGA,230910.40,3731.5040203,N,12221.1902730,W,1,16,0.8,169.66,M,-32.57,M,,*56
$GPRMC,230910.40,A,3731.504,N,12221.190,W,0.0,138.9,170720,,,A*10
$GPGGA,230910.50,3731.5040203,N,12221.1902730,W,1,16,0.8,169.66,M,-32.57,M,,*57
$GPRMC,230910.50,A,3731.504,N,12221.190,W,0.0,138.9,170720,,,A*11
$GPGGA,230910.60,3731.5040203,N,12221.1902730,W,1,16,0.8,169.66,M,-32.57,M,,*54
$GPRMC,230910.60,A,3731.504,N,12221.190,W,0.0,138.9,170720,,,A*12
$GPGGA,230910.70,3731.5040203,N,12221.1902730,W,1,16,0.8,169.66,M,-32.57,M,,*55
$GPRMC,230910.70,A,3731.504,N,12221.190,W,0.0,138.9,170720,,,A*13
$GPGGA,230910.80,3731.5040203,N,12221.1902730,W,1,16,0.8,169.66,M,-32.57,M,,*5A
$GPRMC,230910.80,A,3731.504,N,12221.190,W,0.0,138.9,170720,,,A*67
$GPGGA,230910.90,3731.5040203,N,12221.1902730,W,1,16,0.8,169.66,M,-32.57,M,,*5B
$GPRMC,230910.90,A,3731.504,N,12221.190,W,0.0,138.9,170720,,,A*64
$GPGGA,230911.00,3731.5040203,N,12221.1902730,W,1,16,0.8,169.66,M,-32.57,M,,*53
$GPRMC,230911.00,A,3731.504,N,12221.190,W,0.0,138.9,170720,,,A*15
$GPGGA,230911.10,3731.5040203,N,12221.1902730,W,1,16,0.8,169.66,M,-32.57,M,,*52
$GPRMC,230911.10,A,3731.504,N,12221.190,W,0.0,138.9,170720,,,A*14
$GPGGA,230911.20,3731.5040204,N,12221.1902730,W,1,16,0.8,169.66,M,-32.57,M,,*56
$GPRMC,230911.20,A,3731.504,N,12221.190,W,0.0,138.9,170720,,,A*17
$GPGGA,230911.30,3731.5040203,N,12221.1902730,W,1,16,0.8,169.66,M,-32.57,M,,*50
$GPRMC,230911.30,A,3731.504,N,12221.190,W,0.0,138.9,170720,,,A*16
$GPGGA,230911.40,3731.5040203,N,12221.1902730,W,1,16,0.8,169.66,M,-32.57,M,,*57
$GPRMC,230911.40,A,3731.504,N,12221.190,W,0.0,138.9,170720,,,A*11
